city,lat,long
Melbourne,-37.8142,144.9631
Sydney,-33.8678,151.2100
Brisbane,-27.4678,153.0281
Perth,-31.9559,115.8606
Adelaide,-34.9275,138.6000
Hobart,-42.8806,147.3250
Darwin,-12.4381,130.8411
Canberra,-35.2931,149.1269